transforms: 
  - 
    header: 
      seq: 0
      stamp: 
        secs: 1519847583
        nsecs: 829210954
      frame_id: upper_arm_link
    child_frame_id: forearm_link
    transform: 
      translation: 
        x: 0.0
        y: -0.1719
        z: 0.612
      rotation: 
        x: 0.0
        y: 0.89188672737
        z: 0.0
        w: -0.452258847942
  - 
    header: 
      seq: 0
      stamp: 
        secs: 1519847583
        nsecs: 829210954
      frame_id: shoulder_link
    child_frame_id: upper_arm_link
    transform: 
      translation: 
        x: 0.0
        y: 0.220941
        z: 0.0
      rotation: 
        x: 0.0
        y: -0.078072405435
        z: 0.0
        w: 0.996947691461
  - 
    header: 
      seq: 0
      stamp: 
        secs: 1519847583
        nsecs: 829210954
      frame_id: base_link
    child_frame_id: shoulder_link
    transform: 
      translation: 
        x: 0.0
        y: 0.0
        z: 0.1273
      rotation: 
        x: 0.0
        y: 0.0
        z: -0.717599965194
        w: 0.696455519005
  - 
    header: 
      seq: 0
      stamp: 
        secs: 1519847583
        nsecs: 829210954
      frame_id: forearm_link
    child_frame_id: wrist_1_link
    transform: 
      translation: 
        x: 0.0
        y: 0.0
        z: 0.5723
      rotation: 
        x: 0.0
        y: 0.372218570934
        z: 0.0
        w: 0.928145104739
  - 
    header: 
      seq: 0
      stamp: 
        secs: 1519847583
        nsecs: 829210954
      frame_id: wrist_1_link
    child_frame_id: wrist_2_link
    transform: 
      translation: 
        x: 0.0
        y: 0.1149
        z: 0.0
      rotation: 
        x: 0.0
        y: 0.0
        z: 0.715647023992
        w: 0.698462122847
  - 
    header: 
      seq: 0
      stamp: 
        secs: 1519847583
        nsecs: 829210954
      frame_id: wrist_2_link
    child_frame_id: wrist_3_link
    transform: 
      translation: 
        x: 0.0
        y: 0.0
        z: 0.1157
      rotation: 
        x: 0.0
        y: -0.0154993606056
        z: 0.0
        w: 0.999879877696
---
transforms: 
  - 
    header: 
      seq: 0
      stamp: 
        secs: 1519847583
        nsecs: 829210954
      frame_id: base
    child_frame_id: tool0_controller
    transform: 
      translation: 
        x: -0.179925914148
        y: -0.606869755163
        z: 0.230789102067
      rotation: 
        x: -0.000391746985433
        y: 0.999843477669
        z: 0.012478298684
        w: 0.0125362976928
---
transforms: 
  - 
    header: 
      seq: 0
      stamp: 
        secs: 1519847583
        nsecs: 840605461
      frame_id: base
    child_frame_id: tool0_controller
    transform: 
      translation: 
        x: -0.179925914148
        y: -0.606869755163
        z: 0.230789102067
      rotation: 
        x: -0.000391746985433
        y: 0.999843477669
        z: 0.012478298684
        w: 0.0125362976928
---
transforms: 
  - 
    header: 
      seq: 0
      stamp: 
        secs: 1519847584
        nsecs: 346777268
      frame_id: base_link
    child_frame_id: base
    transform: 
      translation: 
        x: 0.0
        y: 0.0
        z: 0.0
      rotation: 
        x: 0.0
        y: 0.0
        z: 1.0
        w: -1.79489651492e-09
  - 
    header: 
      seq: 0
      stamp: 
        secs: 1519847584
        nsecs: 346793715
      frame_id: wrist_3_link
    child_frame_id: ee_link
    transform: 
      translation: 
        x: 0.0
        y: 0.0922
        z: 0.0
      rotation: 
        x: 0.0
        y: 0.0
        z: 0.707106780552
        w: 0.707106781821
  - 
    header: 
      seq: 0
      stamp: 
        secs: 1519847584
        nsecs: 346800569
      frame_id: world
    child_frame_id: base_link
    transform: 
      translation: 
        x: 0.0
        y: 0.0
        z: 0.0
      rotation: 
        x: 0.0
        y: 0.0
        z: 0.0
        w: 1.0
  - 
    header: 
      seq: 0
      stamp: 
        secs: 1519847584
        nsecs: 346806232
      frame_id: wrist_3_link
    child_frame_id: tool0
    transform: 
      translation: 
        x: 0.0
        y: 0.0922
        z: 0.0
      rotation: 
        x: -0.707106780552
        y: 0.0
        z: 0.0
        w: 0.707106781821
---
transforms: 
  - 
    header: 
      seq: 0
      stamp: 
        secs: 1519847583
        nsecs: 849930984
      frame_id: base
    child_frame_id: tool0_controller
    transform: 
      translation: 
        x: -0.179925914148
        y: -0.606869755163
        z: 0.230789102067
      rotation: 
        x: -0.000391746985433
        y: 0.999843477669
        z: 0.012478298684
        w: 0.0125362976928
---
transforms: 
  - 
    header: 
      seq: 0
      stamp: 
        secs: 1519847583
        nsecs: 849930984
      frame_id: upper_arm_link
    child_frame_id: forearm_link
    transform: 
      translation: 
        x: 0.0
        y: -0.1719
        z: 0.612
      rotation: 
        x: 0.0
        y: 0.89188672737
        z: 0.0
        w: -0.452258847942
  - 
    header: 
      seq: 0
      stamp: 
        secs: 1519847583
        nsecs: 849930984
      frame_id: shoulder_link
    child_frame_id: upper_arm_link
    transform: 
      translation: 
        x: 0.0
        y: 0.220941
        z: 0.0
      rotation: 
        x: 0.0
        y: -0.078072405435
        z: 0.0
        w: 0.996947691461
  - 
    header: 
      seq: 0
      stamp: 
        secs: 1519847583
        nsecs: 849930984
      frame_id: base_link
    child_frame_id: shoulder_link
    transform: 
      translation: 
        x: 0.0
        y: 0.0
        z: 0.1273
      rotation: 
        x: 0.0
        y: 0.0
        z: -0.717599965194
        w: 0.696455519005
  - 
    header: 
      seq: 0
      stamp: 
        secs: 1519847583
        nsecs: 849930984
      frame_id: forearm_link
    child_frame_id: wrist_1_link
    transform: 
      translation: 
        x: 0.0
        y: 0.0
        z: 0.5723
      rotation: 
        x: 0.0
        y: 0.372218570934
        z: 0.0
        w: 0.928145104739
  - 
    header: 
      seq: 0
      stamp: 
        secs: 1519847583
        nsecs: 849930984
      frame_id: wrist_1_link
    child_frame_id: wrist_2_link
    transform: 
      translation: 
        x: 0.0
        y: 0.1149
        z: 0.0
      rotation: 
        x: 0.0
        y: 0.0
        z: 0.715647023992
        w: 0.698462122847
  - 
    header: 
      seq: 0
      stamp: 
        secs: 1519847583
        nsecs: 849930984
      frame_id: wrist_2_link
    child_frame_id: wrist_3_link
    transform: 
      translation: 
        x: 0.0
        y: 0.0
        z: 0.1157
      rotation: 
        x: 0.0
        y: -0.0154993606056
        z: 0.0
        w: 0.999879877696
---
transforms: 
  - 
    header: 
      seq: 0
      stamp: 
        secs: 1519847583
        nsecs: 858981202
      frame_id: base
    child_frame_id: tool0_controller
    transform: 
      translation: 
        x: -0.179925914148
        y: -0.606869755163
        z: 0.230789102067
      rotation: 
        x: -0.000391746985433
        y: 0.999843477669
        z: 0.012478298684
        w: 0.0125362976928
---
transforms: 
  - 
    header: 
      seq: 0
      stamp: 
        secs: 1519847584
        nsecs: 367292442
      frame_id: base_link
    child_frame_id: base
    transform: 
      translation: 
        x: 0.0
        y: 0.0
        z: 0.0
      rotation: 
        x: 0.0
        y: 0.0
        z: 1.0
        w: -1.79489651492e-09
  - 
    header: 
      seq: 0
      stamp: 
        secs: 1519847584
        nsecs: 367309663
      frame_id: wrist_3_link
    child_frame_id: ee_link
    transform: 
      translation: 
        x: 0.0
        y: 0.0922
        z: 0.0
      rotation: 
        x: 0.0
        y: 0.0
        z: 0.707106780552
        w: 0.707106781821
  - 
    header: 
      seq: 0
      stamp: 
        secs: 1519847584
        nsecs: 367317541
      frame_id: world
    child_frame_id: base_link
    transform: 
      translation: 
        x: 0.0
        y: 0.0
        z: 0.0
      rotation: 
        x: 0.0
        y: 0.0
        z: 0.0
        w: 1.0
  - 
    header: 
      seq: 0
      stamp: 
        secs: 1519847584
        nsecs: 367323583
      frame_id: wrist_3_link
    child_frame_id: tool0
    transform: 
      translation: 
        x: 0.0
        y: 0.0922
        z: 0.0
      rotation: 
        x: -0.707106780552
        y: 0.0
        z: 0.0
        w: 0.707106781821
---
transforms: 
  - 
    header: 
      seq: 0
      stamp: 
        secs: 1519847583
        nsecs: 867940160
      frame_id: base
    child_frame_id: tool0_controller
    transform: 
      translation: 
        x: -0.179925914148
        y: -0.606869755163
        z: 0.230789102067
      rotation: 
        x: -0.000391746985433
        y: 0.999843477669
        z: 0.012478298684
        w: 0.0125362976928
---
transforms: 
  - 
    header: 
      seq: 0
      stamp: 
        secs: 1519847583
        nsecs: 876913871
      frame_id: upper_arm_link
    child_frame_id: forearm_link
    transform: 
      translation: 
        x: 0.0
        y: -0.1719
        z: 0.612
      rotation: 
        x: 0.0
        y: 0.89188672737
        z: 0.0
        w: -0.452258847942
  - 
    header: 
      seq: 0
      stamp: 
        secs: 1519847583
        nsecs: 876913871
      frame_id: shoulder_link
    child_frame_id: upper_arm_link
    transform: 
      translation: 
        x: 0.0
        y: 0.220941
        z: 0.0
      rotation: 
        x: 0.0
        y: -0.078072405435
        z: 0.0
        w: 0.996947691461
  - 
    header: 
      seq: 0
      stamp: 
        secs: 1519847583
        nsecs: 876913871
      frame_id: base_link
    child_frame_id: shoulder_link
    transform: 
      translation: 
        x: 0.0
        y: 0.0
        z: 0.1273
      rotation: 
        x: 0.0
        y: 0.0
        z: -0.717599965194
        w: 0.696455519005
  - 
    header: 
      seq: 0
      stamp: 
        secs: 1519847583
        nsecs: 876913871
      frame_id: forearm_link
    child_frame_id: wrist_1_link
    transform: 
      translation: 
        x: 0.0
        y: 0.0
        z: 0.5723
      rotation: 
        x: 0.0
        y: 0.372218570934
        z: 0.0
        w: 0.928145104739
  - 
    header: 
      seq: 0
      stamp: 
        secs: 1519847583
        nsecs: 876913871
      frame_id: wrist_1_link
    child_frame_id: wrist_2_link
    transform: 
      translation: 
        x: 0.0
        y: 0.1149
        z: 0.0
      rotation: 
        x: 0.0
        y: 0.0
        z: 0.715647023992
        w: 0.698462122847
  - 
    header: 
      seq: 0
      stamp: 
        secs: 1519847583
        nsecs: 876913871
      frame_id: wrist_2_link
    child_frame_id: wrist_3_link
    transform: 
      translation: 
        x: 0.0
        y: 0.0
        z: 0.1157
      rotation: 
        x: 0.0
        y: -0.0154993606056
        z: 0.0
        w: 0.999879877696
---
transforms: 
  - 
    header: 
      seq: 0
      stamp: 
        secs: 1519847583
        nsecs: 876913871
      frame_id: base
    child_frame_id: tool0_controller
    transform: 
      translation: 
        x: -0.179925914148
        y: -0.606869755163
        z: 0.230789102067
      rotation: 
        x: -0.000391746985433
        y: 0.999843477669
        z: 0.012478298684
        w: 0.0125362976928
---
transforms: 
  - 
    header: 
      seq: 0
      stamp: 
        secs: 1519847583
        nsecs: 886202349
      frame_id: base
    child_frame_id: tool0_controller
    transform: 
      translation: 
        x: -0.179925914148
        y: -0.606869755163
        z: 0.230789102067
      rotation: 
        x: -0.000391746985433
        y: 0.999843477669
        z: 0.012478298684
        w: 0.0125362976928
---
transforms: 
  - 
    header: 
      seq: 0
      stamp: 
        secs: 1519847584
        nsecs: 387513082
      frame_id: base_link
    child_frame_id: base
    transform: 
      translation: 
        x: 0.0
        y: 0.0
        z: 0.0
      rotation: 
        x: 0.0
        y: 0.0
        z: 1.0
        w: -1.79489651492e-09
  - 
    header: 
      seq: 0
      stamp: 
        secs: 1519847584
        nsecs: 387525481
      frame_id: wrist_3_link
    child_frame_id: ee_link
    transform: 
      translation: 
        x: 0.0
        y: 0.0922
        z: 0.0
      rotation: 
        x: 0.0
        y: 0.0
        z: 0.707106780552
        w: 0.707106781821
  - 
    header: 
      seq: 0
      stamp: 
        secs: 1519847584
        nsecs: 387532089
      frame_id: world
    child_frame_id: base_link
    transform: 
      translation: 
        x: 0.0
        y: 0.0
        z: 0.0
      rotation: 
        x: 0.0
        y: 0.0
        z: 0.0
        w: 1.0
  - 
    header: 
      seq: 0
      stamp: 
        secs: 1519847584
        nsecs: 387537633
      frame_id: wrist_3_link
    child_frame_id: tool0
    transform: 
      translation: 
        x: 0.0
        y: 0.0922
        z: 0.0
      rotation: 
        x: -0.707106780552
        y: 0.0
        z: 0.0
        w: 0.707106781821
---
transforms: 
  - 
    header: 
      seq: 0
      stamp: 
        secs: 1519847583
        nsecs: 895162780
      frame_id: base
    child_frame_id: tool0_controller
    transform: 
      translation: 
        x: -0.179925914148
        y: -0.606869755163
        z: 0.230789102067
      rotation: 
        x: -0.000391746985433
        y: 0.999843477669
        z: 0.012478298684
        w: 0.0125362976928
---
transforms: 
  - 
    header: 
      seq: 0
      stamp: 
        secs: 1519847583
        nsecs: 904047903
      frame_id: base
    child_frame_id: tool0_controller
    transform: 
      translation: 
        x: -0.179925914148
        y: -0.606869755163
        z: 0.230789102067
      rotation: 
        x: -0.000391746985433
        y: 0.999843477669
        z: 0.012478298684
        w: 0.0125362976928
---
transforms: 
  - 
    header: 
      seq: 0
      stamp: 
        secs: 1519847583
        nsecs: 904047903
      frame_id: upper_arm_link
    child_frame_id: forearm_link
    transform: 
      translation: 
        x: 0.0
        y: -0.1719
        z: 0.612
      rotation: 
        x: 0.0
        y: 0.89188672737
        z: 0.0
        w: -0.452258847942
  - 
    header: 
      seq: 0
      stamp: 
        secs: 1519847583
        nsecs: 904047903
      frame_id: shoulder_link
    child_frame_id: upper_arm_link
    transform: 
      translation: 
        x: 0.0
        y: 0.220941
        z: 0.0
      rotation: 
        x: 0.0
        y: -0.078072405435
        z: 0.0
        w: 0.996947691461
  - 
    header: 
      seq: 0
      stamp: 
        secs: 1519847583
        nsecs: 904047903
      frame_id: base_link
    child_frame_id: shoulder_link
    transform: 
      translation: 
        x: 0.0
        y: 0.0
        z: 0.1273
      rotation: 
        x: 0.0
        y: 0.0
        z: -0.717599965194
        w: 0.696455519005
  - 
    header: 
      seq: 0
      stamp: 
        secs: 1519847583
        nsecs: 904047903
      frame_id: forearm_link
    child_frame_id: wrist_1_link
    transform: 
      translation: 
        x: 0.0
        y: 0.0
        z: 0.5723
      rotation: 
        x: 0.0
        y: 0.372218570934
        z: 0.0
        w: 0.928145104739
  - 
    header: 
      seq: 0
      stamp: 
        secs: 1519847583
        nsecs: 904047903
      frame_id: wrist_1_link
    child_frame_id: wrist_2_link
    transform: 
      translation: 
        x: 0.0
        y: 0.1149
        z: 0.0
      rotation: 
        x: 0.0
        y: 0.0
        z: 0.715647023992
        w: 0.698462122847
  - 
    header: 
      seq: 0
      stamp: 
        secs: 1519847583
        nsecs: 904047903
      frame_id: wrist_2_link
    child_frame_id: wrist_3_link
    transform: 
      translation: 
        x: 0.0
        y: 0.0
        z: 0.1157
      rotation: 
        x: 0.0
        y: -0.0154993606056
        z: 0.0
        w: 0.999879877696
---
transforms: 
  - 
    header: 
      seq: 0
      stamp: 
        secs: 1519847584
        nsecs: 406904729
      frame_id: base_link
    child_frame_id: base
    transform: 
      translation: 
        x: 0.0
        y: 0.0
        z: 0.0
      rotation: 
        x: 0.0
        y: 0.0
        z: 1.0
        w: -1.79489651492e-09
  - 
    header: 
      seq: 0
      stamp: 
        secs: 1519847584
        nsecs: 406919119
      frame_id: wrist_3_link
    child_frame_id: ee_link
    transform: 
      translation: 
        x: 0.0
        y: 0.0922
        z: 0.0
      rotation: 
        x: 0.0
        y: 0.0
        z: 0.707106780552
        w: 0.707106781821
  - 
    header: 
      seq: 0
      stamp: 
        secs: 1519847584
        nsecs: 406926020
      frame_id: world
    child_frame_id: base_link
    transform: 
      translation: 
        x: 0.0
        y: 0.0
        z: 0.0
      rotation: 
        x: 0.0
        y: 0.0
        z: 0.0
        w: 1.0
  - 
    header: 
      seq: 0
      stamp: 
        secs: 1519847584
        nsecs: 406931824
      frame_id: wrist_3_link
    child_frame_id: tool0
    transform: 
      translation: 
        x: 0.0
        y: 0.0922
        z: 0.0
      rotation: 
        x: -0.707106780552
        y: 0.0
        z: 0.0
        w: 0.707106781821
---
transforms: 
  - 
    header: 
      seq: 0
      stamp: 
        secs: 1519847583
        nsecs: 912897026
      frame_id: base
    child_frame_id: tool0_controller
    transform: 
      translation: 
        x: -0.179925914148
        y: -0.606869755163
        z: 0.230789102067
      rotation: 
        x: -0.000391746985433
        y: 0.999843477669
        z: 0.012478298684
        w: 0.0125362976928
---
transforms: 
  - 
    header: 
      seq: 0
      stamp: 
        secs: 1519847583
        nsecs: 921959282
      frame_id: base
    child_frame_id: tool0_controller
    transform: 
      translation: 
        x: -0.179925914148
        y: -0.606869755163
        z: 0.230789102067
      rotation: 
        x: -0.000391746985433
        y: 0.999843477669
        z: 0.012478298684
        w: 0.0125362976928
---
transforms: 
  - 
    header: 
      seq: 0
      stamp: 
        secs: 1519847584
        nsecs: 426703615
      frame_id: base_link
    child_frame_id: base
    transform: 
      translation: 
        x: 0.0
        y: 0.0
        z: 0.0
      rotation: 
        x: 0.0
        y: 0.0
        z: 1.0
        w: -1.79489651492e-09
  - 
    header: 
      seq: 0
      stamp: 
        secs: 1519847584
        nsecs: 426715484
      frame_id: wrist_3_link
    child_frame_id: ee_link
    transform: 
      translation: 
        x: 0.0
        y: 0.0922
        z: 0.0
      rotation: 
        x: 0.0
        y: 0.0
        z: 0.707106780552
        w: 0.707106781821
  - 
    header: 
      seq: 0
      stamp: 
        secs: 1519847584
        nsecs: 426720347
      frame_id: world
    child_frame_id: base_link
    transform: 
      translation: 
        x: 0.0
        y: 0.0
        z: 0.0
      rotation: 
        x: 0.0
        y: 0.0
        z: 0.0
        w: 1.0
  - 
    header: 
      seq: 0
      stamp: 
        secs: 1519847584
        nsecs: 426724305
      frame_id: wrist_3_link
    child_frame_id: tool0
    transform: 
      translation: 
        x: 0.0
        y: 0.0922
        z: 0.0
      rotation: 
        x: -0.707106780552
        y: 0.0
        z: 0.0
        w: 0.707106781821
---
transforms: 
  - 
    header: 
      seq: 0
      stamp: 
        secs: 1519847583
        nsecs: 931803686
      frame_id: base
    child_frame_id: tool0_controller
    transform: 
      translation: 
        x: -0.179925914148
        y: -0.606869755163
        z: 0.230789102067
      rotation: 
        x: -0.000391746985433
        y: 0.999843477669
        z: 0.012478298684
        w: 0.0125362976928
---
transforms: 
  - 
    header: 
      seq: 0
      stamp: 
        secs: 1519847583
        nsecs: 931803686
      frame_id: upper_arm_link
    child_frame_id: forearm_link
    transform: 
      translation: 
        x: 0.0
        y: -0.1719
        z: 0.612
      rotation: 
        x: 0.0
        y: 0.89188672737
        z: 0.0
        w: -0.452258847942
  - 
    header: 
      seq: 0
      stamp: 
        secs: 1519847583
        nsecs: 931803686
      frame_id: shoulder_link
    child_frame_id: upper_arm_link
    transform: 
      translation: 
        x: 0.0
        y: 0.220941
        z: 0.0
      rotation: 
        x: 0.0
        y: -0.078072405435
        z: 0.0
        w: 0.996947691461
  - 
    header: 
      seq: 0
      stamp: 
        secs: 1519847583
        nsecs: 931803686
      frame_id: base_link
    child_frame_id: shoulder_link
    transform: 
      translation: 
        x: 0.0
        y: 0.0
        z: 0.1273
      rotation: 
        x: 0.0
        y: 0.0
        z: -0.717599965194
        w: 0.696455519005
  - 
    header: 
      seq: 0
      stamp: 
        secs: 1519847583
        nsecs: 931803686
      frame_id: forearm_link
    child_frame_id: wrist_1_link
    transform: 
      translation: 
        x: 0.0
        y: 0.0
        z: 0.5723
      rotation: 
        x: 0.0
        y: 0.372218570934
        z: 0.0
        w: 0.928145104739
  - 
    header: 
      seq: 0
      stamp: 
        secs: 1519847583
        nsecs: 931803686
      frame_id: wrist_1_link
    child_frame_id: wrist_2_link
    transform: 
      translation: 
        x: 0.0
        y: 0.1149
        z: 0.0
      rotation: 
        x: 0.0
        y: 0.0
        z: 0.715647023992
        w: 0.698462122847
  - 
    header: 
      seq: 0
      stamp: 
        secs: 1519847583
        nsecs: 931803686
      frame_id: wrist_2_link
    child_frame_id: wrist_3_link
    transform: 
      translation: 
        x: 0.0
        y: 0.0
        z: 0.1157
      rotation: 
        x: 0.0
        y: -0.0154993606056
        z: 0.0
        w: 0.999879877696
---
transforms: 
  - 
    header: 
      seq: 0
      stamp: 
        secs: 1519847583
        nsecs: 940680253
      frame_id: base
    child_frame_id: tool0_controller
    transform: 
      translation: 
        x: -0.179925914148
        y: -0.606869755163
        z: 0.230789102067
      rotation: 
        x: -0.000391746985433
        y: 0.999843477669
        z: 0.012478298684
        w: 0.0125362976928
---
transforms: 
  - 
    header: 
      seq: 0
      stamp: 
        secs: 1519847584
        nsecs: 447165054
      frame_id: base_link
    child_frame_id: base
    transform: 
      translation: 
        x: 0.0
        y: 0.0
        z: 0.0
      rotation: 
        x: 0.0
        y: 0.0
        z: 1.0
        w: -1.79489651492e-09
  - 
    header: 
      seq: 0
      stamp: 
        secs: 1519847584
        nsecs: 447181531
      frame_id: wrist_3_link
    child_frame_id: ee_link
    transform: 
      translation: 
        x: 0.0
        y: 0.0922
        z: 0.0
      rotation: 
        x: 0.0
        y: 0.0
        z: 0.707106780552
        w: 0.707106781821
  - 
    header: 
      seq: 0
      stamp: 
        secs: 1519847584
        nsecs: 447188739
      frame_id: world
    child_frame_id: base_link
    transform: 
      translation: 
        x: 0.0
        y: 0.0
        z: 0.0
      rotation: 
        x: 0.0
        y: 0.0
        z: 0.0
        w: 1.0
  - 
    header: 
      seq: 0
      stamp: 
        secs: 1519847584
        nsecs: 447194679
      frame_id: wrist_3_link
    child_frame_id: tool0
    transform: 
      translation: 
        x: 0.0
        y: 0.0922
        z: 0.0
      rotation: 
        x: -0.707106780552
        y: 0.0
        z: 0.0
        w: 0.707106781821
---
transforms: 
  - 
    header: 
      seq: 0
      stamp: 
        secs: 1519847583
        nsecs: 950602304
      frame_id: base
    child_frame_id: tool0_controller
    transform: 
      translation: 
        x: -0.179925914148
        y: -0.606869755163
        z: 0.230789102067
      rotation: 
        x: -0.000391746985433
        y: 0.999843477669
        z: 0.012478298684
        w: 0.0125362976928
---
transforms: 
  - 
    header: 
      seq: 0
      stamp: 
        secs: 1519847583
        nsecs: 959637610
      frame_id: base
    child_frame_id: tool0_controller
    transform: 
      translation: 
        x: -0.179925914148
        y: -0.606869755163
        z: 0.230789102067
      rotation: 
        x: -0.000391746985433
        y: 0.999843477669
        z: 0.012478298684
        w: 0.0125362976928
---
transforms: 
  - 
    header: 
      seq: 0
      stamp: 
        secs: 1519847583
        nsecs: 959637610
      frame_id: upper_arm_link
    child_frame_id: forearm_link
    transform: 
      translation: 
        x: 0.0
        y: -0.1719
        z: 0.612
      rotation: 
        x: 0.0
        y: 0.89188672737
        z: 0.0
        w: -0.452258847942
  - 
    header: 
      seq: 0
      stamp: 
        secs: 1519847583
        nsecs: 959637610
      frame_id: shoulder_link
    child_frame_id: upper_arm_link
    transform: 
      translation: 
        x: 0.0
        y: 0.220941
        z: 0.0
      rotation: 
        x: 0.0
        y: -0.078072405435
        z: 0.0
        w: 0.996947691461
  - 
    header: 
      seq: 0
      stamp: 
        secs: 1519847583
        nsecs: 959637610
      frame_id: base_link
    child_frame_id: shoulder_link
    transform: 
      translation: 
        x: 0.0
        y: 0.0
        z: 0.1273
      rotation: 
        x: 0.0
        y: 0.0
        z: -0.717599965194
        w: 0.696455519005
  - 
    header: 
      seq: 0
      stamp: 
        secs: 1519847583
        nsecs: 959637610
      frame_id: forearm_link
    child_frame_id: wrist_1_link
    transform: 
      translation: 
        x: 0.0
        y: 0.0
        z: 0.5723
      rotation: 
        x: 0.0
        y: 0.372218570934
        z: 0.0
        w: 0.928145104739
  - 
    header: 
      seq: 0
      stamp: 
        secs: 1519847583
        nsecs: 959637610
      frame_id: wrist_1_link
    child_frame_id: wrist_2_link
    transform: 
      translation: 
        x: 0.0
        y: 0.1149
        z: 0.0
      rotation: 
        x: 0.0
        y: 0.0
        z: 0.715647023992
        w: 0.698462122847
  - 
    header: 
      seq: 0
      stamp: 
        secs: 1519847583
        nsecs: 959637610
      frame_id: wrist_2_link
    child_frame_id: wrist_3_link
    transform: 
      translation: 
        x: 0.0
        y: 0.0
        z: 0.1157
      rotation: 
        x: 0.0
        y: -0.0154993606056
        z: 0.0
        w: 0.999879877696
---
transforms: 
  - 
    header: 
      seq: 0
      stamp: 
        secs: 1519847584
        nsecs: 466874690
      frame_id: base_link
    child_frame_id: base
    transform: 
      translation: 
        x: 0.0
        y: 0.0
        z: 0.0
      rotation: 
        x: 0.0
        y: 0.0
        z: 1.0
        w: -1.79489651492e-09
  - 
    header: 
      seq: 0
      stamp: 
        secs: 1519847584
        nsecs: 466892520
      frame_id: wrist_3_link
    child_frame_id: ee_link
    transform: 
      translation: 
        x: 0.0
        y: 0.0922
        z: 0.0
      rotation: 
        x: 0.0
        y: 0.0
        z: 0.707106780552
        w: 0.707106781821
  - 
    header: 
      seq: 0
      stamp: 
        secs: 1519847584
        nsecs: 466900398
      frame_id: world
    child_frame_id: base_link
    transform: 
      translation: 
        x: 0.0
        y: 0.0
        z: 0.0
      rotation: 
        x: 0.0
        y: 0.0
        z: 0.0
        w: 1.0
  - 
    header: 
      seq: 0
      stamp: 
        secs: 1519847584
        nsecs: 466906363
      frame_id: wrist_3_link
    child_frame_id: tool0
    transform: 
      translation: 
        x: 0.0
        y: 0.0922
        z: 0.0
      rotation: 
        x: -0.707106780552
        y: 0.0
        z: 0.0
        w: 0.707106781821
---
transforms: 
  - 
    header: 
      seq: 0
      stamp: 
        secs: 1519847583
        nsecs: 968551418
      frame_id: base
    child_frame_id: tool0_controller
    transform: 
      translation: 
        x: -0.179925914148
        y: -0.606869755163
        z: 0.230789102067
      rotation: 
        x: -0.000391746985433
        y: 0.999843477669
        z: 0.012478298684
        w: 0.0125362976928
---
transforms: 
  - 
    header: 
      seq: 0
      stamp: 
        secs: 1519847583
        nsecs: 977671211
      frame_id: base
    child_frame_id: tool0_controller
    transform: 
      translation: 
        x: -0.179925914148
        y: -0.606869755163
        z: 0.230789102067
      rotation: 
        x: -0.000391746985433
        y: 0.999843477669
        z: 0.012478298684
        w: 0.0125362976928
---
transforms: 
  - 
    header: 
      seq: 0
      stamp: 
        secs: 1519847583
        nsecs: 986522025
      frame_id: base
    child_frame_id: tool0_controller
    transform: 
      translation: 
        x: -0.179925914148
        y: -0.606869755163
        z: 0.230789102067
      rotation: 
        x: -0.000391746985433
        y: 0.999843477669
        z: 0.012478298684
        w: 0.0125362976928
---
transforms: 
  - 
    header: 
      seq: 0
      stamp: 
        secs: 1519847584
        nsecs: 487324510
      frame_id: base_link
    child_frame_id: base
    transform: 
      translation: 
        x: 0.0
        y: 0.0
        z: 0.0
      rotation: 
        x: 0.0
        y: 0.0
        z: 1.0
        w: -1.79489651492e-09
  - 
    header: 
      seq: 0
      stamp: 
        secs: 1519847584
        nsecs: 487342343
      frame_id: wrist_3_link
    child_frame_id: ee_link
    transform: 
      translation: 
        x: 0.0
        y: 0.0922
        z: 0.0
      rotation: 
        x: 0.0
        y: 0.0
        z: 0.707106780552
        w: 0.707106781821
  - 
    header: 
      seq: 0
      stamp: 
        secs: 1519847584
        nsecs: 487350002
      frame_id: world
    child_frame_id: base_link
    transform: 
      translation: 
        x: 0.0
        y: 0.0
        z: 0.0
      rotation: 
        x: 0.0
        y: 0.0
        z: 0.0
        w: 1.0
  - 
    header: 
      seq: 0
      stamp: 
        secs: 1519847584
        nsecs: 487357177
      frame_id: wrist_3_link
    child_frame_id: tool0
    transform: 
      translation: 
        x: 0.0
        y: 0.0922
        z: 0.0
      rotation: 
        x: -0.707106780552
        y: 0.0
        z: 0.0
        w: 0.707106781821
---
transforms: 
  - 
    header: 
      seq: 0
      stamp: 
        secs: 1519847583
        nsecs: 986522025
      frame_id: upper_arm_link
    child_frame_id: forearm_link
    transform: 
      translation: 
        x: 0.0
        y: -0.1719
        z: 0.612
      rotation: 
        x: 0.0
        y: 0.89188672737
        z: 0.0
        w: -0.452258847942
  - 
    header: 
      seq: 0
      stamp: 
        secs: 1519847583
        nsecs: 986522025
      frame_id: shoulder_link
    child_frame_id: upper_arm_link
    transform: 
      translation: 
        x: 0.0
        y: 0.220941
        z: 0.0
      rotation: 
        x: 0.0
        y: -0.078072405435
        z: 0.0
        w: 0.996947691461
  - 
    header: 
      seq: 0
      stamp: 
        secs: 1519847583
        nsecs: 986522025
      frame_id: base_link
    child_frame_id: shoulder_link
    transform: 
      translation: 
        x: 0.0
        y: 0.0
        z: 0.1273
      rotation: 
        x: 0.0
        y: 0.0
        z: -0.717599965194
        w: 0.696455519005
  - 
    header: 
      seq: 0
      stamp: 
        secs: 1519847583
        nsecs: 986522025
      frame_id: forearm_link
    child_frame_id: wrist_1_link
    transform: 
      translation: 
        x: 0.0
        y: 0.0
        z: 0.5723
      rotation: 
        x: 0.0
        y: 0.372218570934
        z: 0.0
        w: 0.928145104739
  - 
    header: 
      seq: 0
      stamp: 
        secs: 1519847583
        nsecs: 986522025
      frame_id: wrist_1_link
    child_frame_id: wrist_2_link
    transform: 
      translation: 
        x: 0.0
        y: 0.1149
        z: 0.0
      rotation: 
        x: 0.0
        y: 0.0
        z: 0.715647023992
        w: 0.698462122847
  - 
    header: 
      seq: 0
      stamp: 
        secs: 1519847583
        nsecs: 986522025
      frame_id: wrist_2_link
    child_frame_id: wrist_3_link
    transform: 
      translation: 
        x: 0.0
        y: 0.0
        z: 0.1157
      rotation: 
        x: 0.0
        y: -0.0154993606056
        z: 0.0
        w: 0.999879877696
---
transforms: 
  - 
    header: 
      seq: 0
      stamp: 
        secs: 1519847583
        nsecs: 995710546
      frame_id: base
    child_frame_id: tool0_controller
    transform: 
      translation: 
        x: -0.179925914148
        y: -0.606869755163
        z: 0.230789102067
      rotation: 
        x: -0.000391746985433
        y: 0.999843477669
        z: 0.012478298684
        w: 0.0125362976928
---
transforms: 
  - 
    header: 
      seq: 0
      stamp: 
        secs: 1519847584
        nsecs:   4613509
      frame_id: base
    child_frame_id: tool0_controller
    transform: 
      translation: 
        x: -0.179925914148
        y: -0.606869755163
        z: 0.230789102067
      rotation: 
        x: -0.000391746985433
        y: 0.999843477669
        z: 0.012478298684
        w: 0.0125362976928
---
transforms: 
  - 
    header: 
      seq: 0
      stamp: 
        secs: 1519847584
        nsecs: 507014861
      frame_id: base_link
    child_frame_id: base
    transform: 
      translation: 
        x: 0.0
        y: 0.0
        z: 0.0
      rotation: 
        x: 0.0
        y: 0.0
        z: 1.0
        w: -1.79489651492e-09
  - 
    header: 
      seq: 0
      stamp: 
        secs: 1519847584
        nsecs: 507026640
      frame_id: wrist_3_link
    child_frame_id: ee_link
    transform: 
      translation: 
        x: 0.0
        y: 0.0922
        z: 0.0
      rotation: 
        x: 0.0
        y: 0.0
        z: 0.707106780552
        w: 0.707106781821
  - 
    header: 
      seq: 0
      stamp: 
        secs: 1519847584
        nsecs: 507031456
      frame_id: world
    child_frame_id: base_link
    transform: 
      translation: 
        x: 0.0
        y: 0.0
        z: 0.0
      rotation: 
        x: 0.0
        y: 0.0
        z: 0.0
        w: 1.0
  - 
    header: 
      seq: 0
      stamp: 
        secs: 1519847584
        nsecs: 507035771
      frame_id: wrist_3_link
    child_frame_id: tool0
    transform: 
      translation: 
        x: 0.0
        y: 0.0922
        z: 0.0
      rotation: 
        x: -0.707106780552
        y: 0.0
        z: 0.0
        w: 0.707106781821
---
transforms: 
  - 
    header: 
      seq: 0
      stamp: 
        secs: 1519847584
        nsecs:  13994274
      frame_id: base
    child_frame_id: tool0_controller
    transform: 
      translation: 
        x: -0.179925914148
        y: -0.606869755163
        z: 0.230789102067
      rotation: 
        x: -0.000391746985433
        y: 0.999843477669
        z: 0.012478298684
        w: 0.0125362976928
---
transforms: 
  - 
    header: 
      seq: 0
      stamp: 
        secs: 1519847584
        nsecs:  13994274
      frame_id: upper_arm_link
    child_frame_id: forearm_link
    transform: 
      translation: 
        x: 0.0
        y: -0.1719
        z: 0.612
      rotation: 
        x: 0.0
        y: 0.89188672737
        z: 0.0
        w: -0.452258847942
  - 
    header: 
      seq: 0
      stamp: 
        secs: 1519847584
        nsecs:  13994274
      frame_id: shoulder_link
    child_frame_id: upper_arm_link
    transform: 
      translation: 
        x: 0.0
        y: 0.220941
        z: 0.0
      rotation: 
        x: 0.0
        y: -0.078072405435
        z: 0.0
        w: 0.996947691461
  - 
    header: 
      seq: 0
      stamp: 
        secs: 1519847584
        nsecs:  13994274
      frame_id: base_link
    child_frame_id: shoulder_link
    transform: 
      translation: 
        x: 0.0
        y: 0.0
        z: 0.1273
      rotation: 
        x: 0.0
        y: 0.0
        z: -0.717599965194
        w: 0.696455519005
  - 
    header: 
      seq: 0
      stamp: 
        secs: 1519847584
        nsecs:  13994274
      frame_id: forearm_link
    child_frame_id: wrist_1_link
    transform: 
      translation: 
        x: 0.0
        y: 0.0
        z: 0.5723
      rotation: 
        x: 0.0
        y: 0.372218570934
        z: 0.0
        w: 0.928145104739
  - 
    header: 
      seq: 0
      stamp: 
        secs: 1519847584
        nsecs:  13994274
      frame_id: wrist_1_link
    child_frame_id: wrist_2_link
    transform: 
      translation: 
        x: 0.0
        y: 0.1149
        z: 0.0
      rotation: 
        x: 0.0
        y: 0.0
        z: 0.715647023992
        w: 0.698462122847
  - 
    header: 
      seq: 0
      stamp: 
        secs: 1519847584
        nsecs:  13994274
      frame_id: wrist_2_link
    child_frame_id: wrist_3_link
    transform: 
      translation: 
        x: 0.0
        y: 0.0
        z: 0.1157
      rotation: 
        x: 0.0
        y: -0.0154993606056
        z: 0.0
        w: 0.999879877696
---
transforms: 
  - 
    header: 
      seq: 0
      stamp: 
        secs: 1519847584
        nsecs:  22876175
      frame_id: base
    child_frame_id: tool0_controller
    transform: 
      translation: 
        x: -0.179925914148
        y: -0.606869755163
        z: 0.230789102067
      rotation: 
        x: -0.000391746985433
        y: 0.999843477669
        z: 0.012478298684
        w: 0.0125362976928
---
transforms: 
  - 
    header: 
      seq: 0
      stamp: 
        secs: 1519847584
        nsecs: 526429818
      frame_id: base_link
    child_frame_id: base
    transform: 
      translation: 
        x: 0.0
        y: 0.0
        z: 0.0
      rotation: 
        x: 0.0
        y: 0.0
        z: 1.0
        w: -1.79489651492e-09
  - 
    header: 
      seq: 0
      stamp: 
        secs: 1519847584
        nsecs: 526441440
      frame_id: wrist_3_link
    child_frame_id: ee_link
    transform: 
      translation: 
        x: 0.0
        y: 0.0922
        z: 0.0
      rotation: 
        x: 0.0
        y: 0.0
        z: 0.707106780552
        w: 0.707106781821
  - 
    header: 
      seq: 0
      stamp: 
        secs: 1519847584
        nsecs: 526445735
      frame_id: world
    child_frame_id: base_link
    transform: 
      translation: 
        x: 0.0
        y: 0.0
        z: 0.0
      rotation: 
        x: 0.0
        y: 0.0
        z: 0.0
        w: 1.0
  - 
    header: 
      seq: 0
      stamp: 
        secs: 1519847584
        nsecs: 526449174
      frame_id: wrist_3_link
    child_frame_id: tool0
    transform: 
      translation: 
        x: 0.0
        y: 0.0922
        z: 0.0
      rotation: 
        x: -0.707106780552
        y: 0.0
        z: 0.0
        w: 0.707106781821
---
transforms: 
  - 
    header: 
      seq: 0
      stamp: 
        secs: 1519847584
        nsecs:  31970916
      frame_id: base
    child_frame_id: tool0_controller
    transform: 
      translation: 
        x: -0.179925914148
        y: -0.606869755163
        z: 0.230789102067
      rotation: 
        x: -0.000391746985433
        y: 0.999843477669
        z: 0.012478298684
        w: 0.0125362976928
---
transforms: 
  - 
    header: 
      seq: 0
      stamp: 
        secs: 1519847584
        nsecs:  41042686
      frame_id: base
    child_frame_id: tool0_controller
    transform: 
      translation: 
        x: -0.179925914148
        y: -0.606869755163
        z: 0.230789102067
      rotation: 
        x: -0.000391746985433
        y: 0.999843477669
        z: 0.012478298684
        w: 0.0125362976928
---
transforms: 
  - 
    header: 
      seq: 0
      stamp: 
        secs: 1519847584
        nsecs:  41042686
      frame_id: upper_arm_link
    child_frame_id: forearm_link
    transform: 
      translation: 
        x: 0.0
        y: -0.1719
        z: 0.612
      rotation: 
        x: 0.0
        y: 0.89188672737
        z: 0.0
        w: -0.452258847942
  - 
    header: 
      seq: 0
      stamp: 
        secs: 1519847584
        nsecs:  41042686
      frame_id: shoulder_link
    child_frame_id: upper_arm_link
    transform: 
      translation: 
        x: 0.0
        y: 0.220941
        z: 0.0
      rotation: 
        x: 0.0
        y: -0.078072405435
        z: 0.0
        w: 0.996947691461
  - 
    header: 
      seq: 0
      stamp: 
        secs: 1519847584
        nsecs:  41042686
      frame_id: base_link
    child_frame_id: shoulder_link
    transform: 
      translation: 
        x: 0.0
        y: 0.0
        z: 0.1273
      rotation: 
        x: 0.0
        y: 0.0
        z: -0.717599965194
        w: 0.696455519005
  - 
    header: 
      seq: 0
      stamp: 
        secs: 1519847584
        nsecs:  41042686
      frame_id: forearm_link
    child_frame_id: wrist_1_link
    transform: 
      translation: 
        x: 0.0
        y: 0.0
        z: 0.5723
      rotation: 
        x: 0.0
        y: 0.372218570934
        z: 0.0
        w: 0.928145104739
  - 
    header: 
      seq: 0
      stamp: 
        secs: 1519847584
        nsecs:  41042686
      frame_id: wrist_1_link
    child_frame_id: wrist_2_link
    transform: 
      translation: 
        x: 0.0
        y: 0.1149
        z: 0.0
      rotation: 
        x: 0.0
        y: 0.0
        z: 0.715647023992
        w: 0.698462122847
  - 
    header: 
      seq: 0
      stamp: 
        secs: 1519847584
        nsecs:  41042686
      frame_id: wrist_2_link
    child_frame_id: wrist_3_link
    transform: 
      translation: 
        x: 0.0
        y: 0.0
        z: 0.1157
      rotation: 
        x: 0.0
        y: -0.0154993606056
        z: 0.0
        w: 0.999879877696
---
transforms: 
  - 
    header: 
      seq: 0
      stamp: 
        secs: 1519847584
        nsecs: 546790641
      frame_id: base_link
    child_frame_id: base
    transform: 
      translation: 
        x: 0.0
        y: 0.0
        z: 0.0
      rotation: 
        x: 0.0
        y: 0.0
        z: 1.0
        w: -1.79489651492e-09
  - 
    header: 
      seq: 0
      stamp: 
        secs: 1519847584
        nsecs: 546804204
      frame_id: wrist_3_link
    child_frame_id: ee_link
    transform: 
      translation: 
        x: 0.0
        y: 0.0922
        z: 0.0
      rotation: 
        x: 0.0
        y: 0.0
        z: 0.707106780552
        w: 0.707106781821
  - 
    header: 
      seq: 0
      stamp: 
        secs: 1519847584
        nsecs: 546809233
      frame_id: world
    child_frame_id: base_link
    transform: 
      translation: 
        x: 0.0
        y: 0.0
        z: 0.0
      rotation: 
        x: 0.0
        y: 0.0
        z: 0.0
        w: 1.0
  - 
    header: 
      seq: 0
      stamp: 
        secs: 1519847584
        nsecs: 546813990
      frame_id: wrist_3_link
    child_frame_id: tool0
    transform: 
      translation: 
        x: 0.0
        y: 0.0922
        z: 0.0
      rotation: 
        x: -0.707106780552
        y: 0.0
        z: 0.0
        w: 0.707106781821
---
transforms: 
  - 
    header: 
      seq: 0
      stamp: 
        secs: 1519847584
        nsecs:  50001894
      frame_id: base
    child_frame_id: tool0_controller
    transform: 
      translation: 
        x: -0.179925914148
        y: -0.606869755163
        z: 0.230789102067
      rotation: 
        x: -0.000391746985433
        y: 0.999843477669
        z: 0.012478298684
        w: 0.0125362976928
---
transforms: 
  - 
    header: 
      seq: 0
      stamp: 
        secs: 1519847584
        nsecs:  60045649
      frame_id: base
    child_frame_id: tool0_controller
    transform: 
      translation: 
        x: -0.179925914148
        y: -0.606869755163
        z: 0.230789102067
      rotation: 
        x: -0.000391746985433
        y: 0.999843477669
        z: 0.012478298684
        w: 0.0125362976928
---
transforms: 
  - 
    header: 
      seq: 0
      stamp: 
        secs: 1519847584
        nsecs: 567179672
      frame_id: base_link
    child_frame_id: base
    transform: 
      translation: 
        x: 0.0
        y: 0.0
        z: 0.0
      rotation: 
        x: 0.0
        y: 0.0
        z: 1.0
        w: -1.79489651492e-09
  - 
    header: 
      seq: 0
      stamp: 
        secs: 1519847584
        nsecs: 567196120
      frame_id: wrist_3_link
    child_frame_id: ee_link
    transform: 
      translation: 
        x: 0.0
        y: 0.0922
        z: 0.0
      rotation: 
        x: 0.0
        y: 0.0
        z: 0.707106780552
        w: 0.707106781821
  - 
    header: 
      seq: 0
      stamp: 
        secs: 1519847584
        nsecs: 567203547
      frame_id: world
    child_frame_id: base_link
    transform: 
      translation: 
        x: 0.0
        y: 0.0
        z: 0.0
      rotation: 
        x: 0.0
        y: 0.0
        z: 0.0
        w: 1.0
  - 
    header: 
      seq: 0
      stamp: 
        secs: 1519847584
        nsecs: 567209595
      frame_id: wrist_3_link
    child_frame_id: tool0
    transform: 
      translation: 
        x: 0.0
        y: 0.0922
        z: 0.0
      rotation: 
        x: -0.707106780552
        y: 0.0
        z: 0.0
        w: 0.707106781821
---
transforms: 
  - 
    header: 
      seq: 0
      stamp: 
        secs: 1519847584
        nsecs:  68909829
      frame_id: base
    child_frame_id: tool0_controller
    transform: 
      translation: 
        x: -0.179925914148
        y: -0.606869755163
        z: 0.230789102067
      rotation: 
        x: -0.000391746985433
        y: 0.999843477669
        z: 0.012478298684
        w: 0.0125362976928
---
transforms: 
  - 
    header: 
      seq: 0
      stamp: 
        secs: 1519847584
        nsecs:  68909829
      frame_id: upper_arm_link
    child_frame_id: forearm_link
    transform: 
      translation: 
        x: 0.0
        y: -0.1719
        z: 0.612
      rotation: 
        x: 0.0
        y: 0.89188672737
        z: 0.0
        w: -0.452258847942
  - 
    header: 
      seq: 0
      stamp: 
        secs: 1519847584
        nsecs:  68909829
      frame_id: shoulder_link
    child_frame_id: upper_arm_link
    transform: 
      translation: 
        x: 0.0
        y: 0.220941
        z: 0.0
      rotation: 
        x: 0.0
        y: -0.078072405435
        z: 0.0
        w: 0.996947691461
  - 
    header: 
      seq: 0
      stamp: 
        secs: 1519847584
        nsecs:  68909829
      frame_id: base_link
    child_frame_id: shoulder_link
    transform: 
      translation: 
        x: 0.0
        y: 0.0
        z: 0.1273
      rotation: 
        x: 0.0
        y: 0.0
        z: -0.717599965194
        w: 0.696455519005
  - 
    header: 
      seq: 0
      stamp: 
        secs: 1519847584
        nsecs:  68909829
      frame_id: forearm_link
    child_frame_id: wrist_1_link
    transform: 
      translation: 
        x: 0.0
        y: 0.0
        z: 0.5723
      rotation: 
        x: 0.0
        y: 0.372218570934
        z: 0.0
        w: 0.928145104739
  - 
    header: 
      seq: 0
      stamp: 
        secs: 1519847584
        nsecs:  68909829
      frame_id: wrist_1_link
    child_frame_id: wrist_2_link
    transform: 
      translation: 
        x: 0.0
        y: 0.1149
        z: 0.0
      rotation: 
        x: 0.0
        y: 0.0
        z: 0.715647023992
        w: 0.698462122847
  - 
    header: 
      seq: 0
      stamp: 
        secs: 1519847584
        nsecs:  68909829
      frame_id: wrist_2_link
    child_frame_id: wrist_3_link
    transform: 
      translation: 
        x: 0.0
        y: 0.0
        z: 0.1157
      rotation: 
        x: 0.0
        y: -0.0154993606056
        z: 0.0
        w: 0.999879877696
---
transforms: 
  - 
    header: 
      seq: 0
      stamp: 
        secs: 1519847584
        nsecs:  77951613
      frame_id: base
    child_frame_id: tool0_controller
    transform: 
      translation: 
        x: -0.179925914148
        y: -0.606869755163
        z: 0.230789102067
      rotation: 
        x: -0.000391746985433
        y: 0.999843477669
        z: 0.012478298684
        w: 0.0125362976928
---
transforms: 
  - 
    header: 
      seq: 0
      stamp: 
        secs: 1519847584
        nsecs:  87240120
      frame_id: base
    child_frame_id: tool0_controller
    transform: 
      translation: 
        x: -0.179925914148
        y: -0.606869755163
        z: 0.230789102067
      rotation: 
        x: -0.000391746985433
        y: 0.999843477669
        z: 0.012478298684
        w: 0.0125362976928
---
transforms: 
  - 
    header: 
      seq: 0
      stamp: 
        secs: 1519847584
        nsecs: 586626987
      frame_id: base_link
    child_frame_id: base
    transform: 
      translation: 
        x: 0.0
        y: 0.0
        z: 0.0
      rotation: 
        x: 0.0
        y: 0.0
        z: 1.0
        w: -1.79489651492e-09
  - 
    header: 
      seq: 0
      stamp: 
        secs: 1519847584
        nsecs: 586643887
      frame_id: wrist_3_link
    child_frame_id: ee_link
    transform: 
      translation: 
        x: 0.0
        y: 0.0922
        z: 0.0
      rotation: 
        x: 0.0
        y: 0.0
        z: 0.707106780552
        w: 0.707106781821
  - 
    header: 
      seq: 0
      stamp: 
        secs: 1519847584
        nsecs: 586651620
      frame_id: world
    child_frame_id: base_link
    transform: 
      translation: 
        x: 0.0
        y: 0.0
        z: 0.0
      rotation: 
        x: 0.0
        y: 0.0
        z: 0.0
        w: 1.0
  - 
    header: 
      seq: 0
      stamp: 
        secs: 1519847584
        nsecs: 586710705
      frame_id: wrist_3_link
    child_frame_id: tool0
    transform: 
      translation: 
        x: 0.0
        y: 0.0922
        z: 0.0
      rotation: 
        x: -0.707106780552
        y: 0.0
        z: 0.0
        w: 0.707106781821
---
transforms: 
  - 
    header: 
      seq: 0
      stamp: 
        secs: 1519847584
        nsecs:  96605920
      frame_id: upper_arm_link
    child_frame_id: forearm_link
    transform: 
      translation: 
        x: 0.0
        y: -0.1719
        z: 0.612
      rotation: 
        x: 0.0
        y: 0.89188672737
        z: 0.0
        w: -0.452258847942
  - 
    header: 
      seq: 0
      stamp: 
        secs: 1519847584
        nsecs:  96605920
      frame_id: shoulder_link
    child_frame_id: upper_arm_link
    transform: 
      translation: 
        x: 0.0
        y: 0.220941
        z: 0.0
      rotation: 
        x: 0.0
        y: -0.078072405435
        z: 0.0
        w: 0.996947691461
  - 
    header: 
      seq: 0
      stamp: 
        secs: 1519847584
        nsecs:  96605920
      frame_id: base_link
    child_frame_id: shoulder_link
    transform: 
      translation: 
        x: 0.0
        y: 0.0
        z: 0.1273
      rotation: 
        x: 0.0
        y: 0.0
        z: -0.717599965194
        w: 0.696455519005
  - 
    header: 
      seq: 0
      stamp: 
        secs: 1519847584
        nsecs:  96605920
      frame_id: forearm_link
    child_frame_id: wrist_1_link
    transform: 
      translation: 
        x: 0.0
        y: 0.0
        z: 0.5723
      rotation: 
        x: 0.0
        y: 0.372218570934
        z: 0.0
        w: 0.928145104739
  - 
    header: 
      seq: 0
      stamp: 
        secs: 1519847584
        nsecs:  96605920
      frame_id: wrist_1_link
    child_frame_id: wrist_2_link
    transform: 
      translation: 
        x: 0.0
        y: 0.1149
        z: 0.0
      rotation: 
        x: 0.0
        y: 0.0
        z: 0.715647023992
        w: 0.698462122847
  - 
    header: 
      seq: 0
      stamp: 
        secs: 1519847584
        nsecs:  96605920
      frame_id: wrist_2_link
    child_frame_id: wrist_3_link
    transform: 
      translation: 
        x: 0.0
        y: 0.0
        z: 0.1157
      rotation: 
        x: 0.0
        y: -0.0154993606056
        z: 0.0
        w: 0.999879877696
---
transforms: 
  - 
    header: 
      seq: 0
      stamp: 
        secs: 1519847584
        nsecs:  96605920
      frame_id: base
    child_frame_id: tool0_controller
    transform: 
      translation: 
        x: -0.179925914148
        y: -0.606869755163
        z: 0.230789102067
      rotation: 
        x: -0.000391746985433
        y: 0.999843477669
        z: 0.012478298684
        w: 0.0125362976928
---
transforms: 
  - 
    header: 
      seq: 0
      stamp: 
        secs: 1519847584
        nsecs: 105889435
      frame_id: base
    child_frame_id: tool0_controller
    transform: 
      translation: 
        x: -0.179925914148
        y: -0.606869755163
        z: 0.230789102067
      rotation: 
        x: -0.000391746985433
        y: 0.999843477669
        z: 0.012478298684
        w: 0.0125362976928
---
transforms: 
  - 
    header: 
      seq: 0
      stamp: 
        secs: 1519847584
        nsecs: 607144628
      frame_id: base_link
    child_frame_id: base
    transform: 
      translation: 
        x: 0.0
        y: 0.0
        z: 0.0
      rotation: 
        x: 0.0
        y: 0.0
        z: 1.0
        w: -1.79489651492e-09
  - 
    header: 
      seq: 0
      stamp: 
        secs: 1519847584
        nsecs: 607159996
      frame_id: wrist_3_link
    child_frame_id: ee_link
    transform: 
      translation: 
        x: 0.0
        y: 0.0922
        z: 0.0
      rotation: 
        x: 0.0
        y: 0.0
        z: 0.707106780552
        w: 0.707106781821
  - 
    header: 
      seq: 0
      stamp: 
        secs: 1519847584
        nsecs: 607167003
      frame_id: world
    child_frame_id: base_link
    transform: 
      translation: 
        x: 0.0
        y: 0.0
        z: 0.0
      rotation: 
        x: 0.0
        y: 0.0
        z: 0.0
        w: 1.0
  - 
    header: 
      seq: 0
      stamp: 
        secs: 1519847584
        nsecs: 607172483
      frame_id: wrist_3_link
    child_frame_id: tool0
    transform: 
      translation: 
        x: 0.0
        y: 0.0922
        z: 0.0
      rotation: 
        x: -0.707106780552
        y: 0.0
        z: 0.0
        w: 0.707106781821
---
transforms: 
  - 
    header: 
      seq: 0
      stamp: 
        secs: 1519847584
        nsecs: 114976253
      frame_id: base
    child_frame_id: tool0_controller
    transform: 
      translation: 
        x: -0.179925914148
        y: -0.606869755163
        z: 0.230789102067
      rotation: 
        x: -0.000391746985433
        y: 0.999843477669
        z: 0.012478298684
        w: 0.0125362976928
---
transforms: 
  - 
    header: 
      seq: 0
      stamp: 
        secs: 1519847584
        nsecs: 124136027
      frame_id: base
    child_frame_id: tool0_controller
    transform: 
      translation: 
        x: -0.179925914148
        y: -0.606869755163
        z: 0.230789102067
      rotation: 
        x: -0.000391746985433
        y: 0.999843477669
        z: 0.012478298684
        w: 0.0125362976928
---
transforms: 
  - 
    header: 
      seq: 0
      stamp: 
        secs: 1519847584
        nsecs: 124136027
      frame_id: upper_arm_link
    child_frame_id: forearm_link
    transform: 
      translation: 
        x: 0.0
        y: -0.1719
        z: 0.612
      rotation: 
        x: 0.0
        y: 0.89188672737
        z: 0.0
        w: -0.452258847942
  - 
    header: 
      seq: 0
      stamp: 
        secs: 1519847584
        nsecs: 124136027
      frame_id: shoulder_link
    child_frame_id: upper_arm_link
    transform: 
      translation: 
        x: 0.0
        y: 0.220941
        z: 0.0
      rotation: 
        x: 0.0
        y: -0.078072405435
        z: 0.0
        w: 0.996947691461
  - 
    header: 
      seq: 0
      stamp: 
        secs: 1519847584
        nsecs: 124136027
      frame_id: base_link
    child_frame_id: shoulder_link
    transform: 
      translation: 
        x: 0.0
        y: 0.0
        z: 0.1273
      rotation: 
        x: 0.0
        y: 0.0
        z: -0.717599965194
        w: 0.696455519005
  - 
    header: 
      seq: 0
      stamp: 
        secs: 1519847584
        nsecs: 124136027
      frame_id: forearm_link
    child_frame_id: wrist_1_link
    transform: 
      translation: 
        x: 0.0
        y: 0.0
        z: 0.5723
      rotation: 
        x: 0.0
        y: 0.372218570934
        z: 0.0
        w: 0.928145104739
  - 
    header: 
      seq: 0
      stamp: 
        secs: 1519847584
        nsecs: 124136027
      frame_id: wrist_1_link
    child_frame_id: wrist_2_link
    transform: 
      translation: 
        x: 0.0
        y: 0.1149
        z: 0.0
      rotation: 
        x: 0.0
        y: 0.0
        z: 0.715647023992
        w: 0.698462122847
  - 
    header: 
      seq: 0
      stamp: 
        secs: 1519847584
        nsecs: 124136027
      frame_id: wrist_2_link
    child_frame_id: wrist_3_link
    transform: 
      translation: 
        x: 0.0
        y: 0.0
        z: 0.1157
      rotation: 
        x: 0.0
        y: -0.0154993606056
        z: 0.0
        w: 0.999879877696
---
transforms: 
  - 
    header: 
      seq: 0
      stamp: 
        secs: 1519847584
        nsecs: 626606993
      frame_id: base_link
    child_frame_id: base
    transform: 
      translation: 
        x: 0.0
        y: 0.0
        z: 0.0
      rotation: 
        x: 0.0
        y: 0.0
        z: 1.0
        w: -1.79489651492e-09
  - 
    header: 
      seq: 0
      stamp: 
        secs: 1519847584
        nsecs: 626642703
      frame_id: wrist_3_link
    child_frame_id: ee_link
    transform: 
      translation: 
        x: 0.0
        y: 0.0922
        z: 0.0
      rotation: 
        x: 0.0
        y: 0.0
        z: 0.707106780552
        w: 0.707106781821
  - 
    header: 
      seq: 0
      stamp: 
        secs: 1519847584
        nsecs: 626651008
      frame_id: world
    child_frame_id: base_link
    transform: 
      translation: 
        x: 0.0
        y: 0.0
        z: 0.0
      rotation: 
        x: 0.0
        y: 0.0
        z: 0.0
        w: 1.0
  - 
    header: 
      seq: 0
      stamp: 
        secs: 1519847584
        nsecs: 626657210
      frame_id: wrist_3_link
    child_frame_id: tool0
    transform: 
      translation: 
        x: 0.0
        y: 0.0922
        z: 0.0
      rotation: 
        x: -0.707106780552
        y: 0.0
        z: 0.0
        w: 0.707106781821
---
transforms: 
  - 
    header: 
      seq: 0
      stamp: 
        secs: 1519847584
        nsecs: 133038335
      frame_id: base
    child_frame_id: tool0_controller
    transform: 
      translation: 
        x: -0.179925914148
        y: -0.606869755163
        z: 0.230789102067
      rotation: 
        x: -0.000391746985433
        y: 0.999843477669
        z: 0.012478298684
        w: 0.0125362976928
---
transforms: 
  - 
    header: 
      seq: 0
      stamp: 
        secs: 1519847584
        nsecs: 142289361
      frame_id: base
    child_frame_id: tool0_controller
    transform: 
      translation: 
        x: -0.179925914148
        y: -0.606869755163
        z: 0.230789102067
      rotation: 
        x: -0.000391746985433
        y: 0.999843477669
        z: 0.012478298684
        w: 0.0125362976928
---
transforms: 
  - 
    header: 
      seq: 0
      stamp: 
        secs: 1519847584
        nsecs: 647114084
      frame_id: base_link
    child_frame_id: base
    transform: 
      translation: 
        x: 0.0
        y: 0.0
        z: 0.0
      rotation: 
        x: 0.0
        y: 0.0
        z: 1.0
        w: -1.79489651492e-09
  - 
    header: 
      seq: 0
      stamp: 
        secs: 1519847584
        nsecs: 647129597
      frame_id: wrist_3_link
    child_frame_id: ee_link
    transform: 
      translation: 
        x: 0.0
        y: 0.0922
        z: 0.0
      rotation: 
        x: 0.0
        y: 0.0
        z: 0.707106780552
        w: 0.707106781821
  - 
    header: 
      seq: 0
      stamp: 
        secs: 1519847584
        nsecs: 647135067
      frame_id: world
    child_frame_id: base_link
    transform: 
      translation: 
        x: 0.0
        y: 0.0
        z: 0.0
      rotation: 
        x: 0.0
        y: 0.0
        z: 0.0
        w: 1.0
  - 
    header: 
      seq: 0
      stamp: 
        secs: 1519847584
        nsecs: 647139773
      frame_id: wrist_3_link
